{
    "link": "https://www.tripadvisor.com/Hotels-g60763-New_York_City_New_York-Hotels.html",
    "total_pages": 32,
    "current_page": 1,
    "total_items_count": 944,
    "items_count": 37,
    "results": [
      {
        "id": 14013137,
        "name": "Hilton Club The Residences New York",
        "link": "https://www.tripadvisor.com/HotelHighlight-g60763-d14013137-Reviews-Hilton_Club_The_Residences_New_York-New_York_City_New_York.html",
        "reviews": 196,
        "rating": 4.5,
        "price_range_usd": {
          "min": 645,
          "max": 938
        },
        "phone": "+1 646-459-6565",
        "address": "1335 Avenue Of The Americas,44th Fl, New York City, NY 10019",
        "detailed_address": {
          "street": "1335 Avenue Of The Americas,44th, Fl",
          "city": "New York City",
          "postal_code": "10019",
          "state": "New York",
          "country": "United States"
        },
        "ranking": {
          "current_rank": 181,
          "total": 503
        },
        "featured_image": null,
        "latitude": 40.762447,
        "longitude": -73.97927,
        "amenities": [
          "Free Wifi",
          "Restaurant",
          "Room service",
          "Bar/Lounge",
          "Fitness center"
        ],
        "providers": [
          "Hilton"
        ]
      },
      {
        "id": 93358,
        "name": "Pod 51 Hotel",
        "link": "https://www.tripadvisor.com/HotelHighlight-g60763-d93358-Reviews-Pod_51_Hotel-New_York_City_New_York.html",
        "reviews": 6301,
        "rating": 4,
        "price_range_usd": {
          "min": 162,
          "max": 254
        },
        "phone": "+1 212-355-0300",
        "address": "230 East 51st Street, New York City, NY 10022-6571",
        "detailed_address": {
          "street": "230 East 51st Street",
          "city": "New York City",
          "postal_code": "10022-6571",
          "state": "New York",
          "country": "United States"
        },
        "ranking": {
          "current_rank": 243,
          "total": 503
        },
        "featured_image": null,
        "latitude": 40.755814,
        "longitude": -73.96907,
        "amenities": [
          "Free Wifi",
          "Restaurant",
          "Bar/Lounge"
        ],
        "providers": [
          "Booking.com",
          "Hotels.com",
          "Priceline",
          "Vio.com"
        ]
      },
      {
        "id": 93627,
        "name": "West Side YMCA",
        "link": "https://www.tripadvisor.com/HotelHighlight-g60763-d93627-Reviews-West_Side_YMCA-New_York_City_New_York.html",
        "reviews": 1650,
        "rating": 3,
        "price_range_usd": {
          "min": 104,
          "max": 153
        },
        "phone": "+1 212-912-2625",
        "address": "5 West 63rd Street, New York City, NY 10023-7162",
        "detailed_address": {
          "street": "5 West 63rd Street",
          "city": "New York City",
          "postal_code": "10023-7162",
          "state": "New York",
          "country": "United States"
        },
        "ranking": {
          "current_rank": 46,
          "total": 191
        },
        "featured_image": null,
        "latitude": 40.77096,
        "longitude": -73.98044,
        "amenities": [
          "Pool",
          "Fitness center"
        ],
        "providers": [
          "Booking.com",
          "Trip.com",
          "Hotels.com",
          "Expedia.com"
        ]
      },
      {
        "id": 93517,
        "name": "Paramount Hotel",
        "link": "https://www.tripadvisor.com/HotelHighlight-g60763-d93517-Reviews-Paramount_Hotel-New_York_City_New_York.html",
        "reviews": 2672,
        "rating": 3.5,
        "price_range_usd": {
          "min": 207,
          "max": 286
        },
        "phone": "+1 212-764-5500",
        "address": "235 W 46th St, New York City, NY 10036-1409",
        "detailed_address": {
          "street": "235 W 46th St",
          "city": "New York City",
          "postal_code": "10036-1409",
          "state": "New York",
          "country": "United States"
        },
        "ranking": {
          "current_rank": 474,
          "total": 503
        },
        "featured_image": null,
        "latitude": 40.75956,
        "longitude": -73.98696,
        "amenities": [
          "Fitness center"
        ],
        "providers": [
          "Booking.com",
          "Expedia.com",
          "Hotels.com",
          "Skyscanner.com"
        ]
      },
      {
        "id": 12301470,
        "name": "Moxy NYC Times Square",
        "link": "https://www.tripadvisor.com/HotelHighlight-g60763-d12301470-Reviews-Moxy_NYC_Times_Square-New_York_City_New_York.html",
        "reviews": 3629,
        "rating": 4.5,
        "price_range_usd": {
          "min": 223,
          "max": 388
        },
        "phone": "+1 212-967-6699",
        "address": "485 7th Avenue, New York City, NY 10018-6804",
        "detailed_address": {
          "street": "485 7th Avenue",
          "city": "New York City",
          "postal_code": "10018-6804",
          "state": "New York",
          "country": "United States"
        },
        "ranking": {
          "current_rank": 48,
          "total": 503
        },
        "featured_image": null,
        "latitude": 40.752316,
        "longitude": -73.98913,
        "amenities": [
          "Free Wifi",
          "Restaurant",
          "Bar/Lounge",
          "Fitness center"
        ],
        "providers": [
          "Booking.com",
          "Hotels.com",
          "Expedia.com",
          "Algotels"
        ]
      },
      {
        "id": 23462501,
        "name": "Margaritaville Resort Times Square",
        "link": "https://www.tripadvisor.com/HotelHighlight-g60763-d23462501-Reviews-Margaritaville_Resort_Times_Square-New_York_City_New_York.html",
        "reviews": 783,
        "rating": 4.5,
        "price_range_usd": {
          "min": 302,
          "max": 456
        },
        "phone": "+1 212-221-3007",
        "address": "560 7th Ave, New York City, NY 10018",
        "detailed_address": {
          "street": "560 7th Ave",
          "city": "New York City",
          "postal_code": "10018",
          "state": "New York",
          "country": "United States"
        },
        "ranking": {
          "current_rank": 130,
          "total": 503
        },
        "featured_image": null,
        "latitude": 40.755108,
        "longitude": -73.98815,
        "amenities": [
          "Free Wifi",
          "Pool",
          "Restaurant",
          "Room service",
          "Bar/Lounge"
        ],
        "providers": [
          "Booking.com",
          "Hotels.com",
          "Expedia.com",
          "Tripadvisor"
        ]
      },
      {
        "id": 208452,
        "name": "Conrad New York Downtown",
        "link": "https://www.tripadvisor.com/HotelHighlight-g60763-d208452-Reviews-Conrad_New_York_Downtown-New_York_City_New_York.html",
        "reviews": 4720,
        "rating": 4.5,
        "price_range_usd": {
          "min": 402,
          "max": 732
        },
        "phone": "+1 212-945-0100",
        "address": "102 North End Avenue, New York City, NY 10282",
        "detailed_address": {
          "street": "102 North End Avenue",
          "city": "New York City",
          "postal_code": "10282",
          "state": "New York",
          "country": "United States"
        },
        "ranking": {
          "current_rank": 87,
          "total": 503
        },
        "featured_image": null,
        "latitude": 40.715023,
        "longitude": -74.0158,
        "amenities": [
          "Free Wifi",
          "Restaurant",
          "Room service",
          "Bar/Lounge",
          "Fitness center"
        ],
        "providers": [
          "Conrad"
        ]
      },
      {
        "id": 93520,
        "name": "Park Central Hotel New York",
        "link": "https://www.tripadvisor.com/HotelHighlight-g60763-d93520-Reviews-Park_Central_Hotel_New_York-New_York_City_New_York.html",
        "reviews": 8857,
        "rating": 4,
        "price_range_usd": {
          "min": 264,
          "max": 461
        },
        "phone": "+1 212-247-8000",
        "address": "870 7th Ave, New York City, NY 10019",
        "detailed_address": {
          "street": "870 7th Ave",
          "city": "New York City",
          "postal_code": "10019",
          "state": "New York",
          "country": "United States"
        },
        "ranking": {
          "current_rank": 346,
          "total": 503
        },
        "featured_image": null,
        "latitude": 40.764618,
        "longitude": -73.980896,
        "amenities": [
          "Room service",
          "Fitness center"
        ],
        "providers": [
          "Booking.com",
          "Trip.com",
          "Official Site",
          "Skyscanner.com"
        ]
      },
      {
        "id": 112064,
        "name": "Warwick New York",
        "link": "https://www.tripadvisor.com/HotelHighlight-g60763-d112064-Reviews-Warwick_New_York-New_York_City_New_York.html",
        "reviews": 5446,
        "rating": 4.5,
        "price_range_usd": {
          "min": 277,
          "max": 441
        },
        "phone": "+1 212-247-2700",
        "address": "65 W 54th St, New York City, NY 10019",
        "detailed_address": {
          "street": "65 W 54th St",
          "city": "New York City",
          "postal_code": "10019",
          "state": "New York",
          "country": "United States"
        },
        "ranking": {
          "current_rank": 247,
          "total": 503
        },
        "featured_image": null,
        "latitude": 40.762466,
        "longitude": -73.9781,
        "amenities": [
          "Restaurant",
          "Room service",
          "Bar/Lounge",
          "Fitness center"
        ],
        "providers": [
          "Booking.com",
          "Expedia.com",
          "Hotels.com",
          "Agoda.com"
        ]
      },
      {
        "id": 5040757,
        "name": "Homewood Suites by Hilton New York/Midtown Manhattan Times Square-South, NY",
        "link": "https://www.tripadvisor.com/HotelHighlight-g60763-d5040757-Reviews-Homewood_Suites_by_Hilton_New_York_Midtown_Manhattan_Times_Square_South_NY-New_York_C.html",
        "reviews": 4620,
        "rating": 4.5,
        "price_range_usd": {
          "min": 258,
          "max": 439
        },
        "phone": "+1 212-244-0644",
        "address": "312 West 37th Street, New York City, NY 10018",
        "detailed_address": {
          "street": "312 West 37th Street",
          "city": "New York City",
          "postal_code": "10018",
          "state": "New York",
          "country": "United States"
        },
        "ranking": {
          "current_rank": 100,
          "total": 503
        },
        "featured_image": null,
        "latitude": 40.754345,
        "longitude": -73.99311,
        "amenities": [
          "Free Wifi",
          "Fitness center"
        ],
        "providers": [
          "Homewood",
          "Booking.com",
          "Expedia.com",
          "Skyscanner.com"
        ]
      },
      {
        "id": 122005,
        "name": "The New Yorker, A Wyndham Hotel",
        "link": "https://www.tripadvisor.com/HotelHighlight-g60763-d122005-Reviews-The_New_Yorker_A_Wyndham_Hotel-New_York_City_New_York.html",
        "reviews": 16327,
        "rating": 4,
        "price_range_usd": {
          "min": 219,
          "max": 362
        },
        "phone": "+1 212-971-0101",
        "address": "481 8th Avenue & 34th Street, New York City, NY 10001-1809",
        "detailed_address": {
          "street": "481 8th Avenue & 34th Street",
          "city": "New York City",
          "postal_code": "10001-1809",
          "state": "New York",
          "country": "United States"
        },
        "ranking": {
          "current_rank": 303,
          "total": 503
        },
        "featured_image": null,
        "latitude": 40.75263,
        "longitude": -73.993385,
        "amenities": [
          "Restaurant",
          "Room service",
          "Bar/Lounge",
          "Fitness center"
        ],
        "providers": [
          "Booking.com",
          "Expedia.com",
          "Priceline",
          "Skyscanner.com"
        ]
      },
      {
        "id": 93454,
        "name": "Crowne Plaza Times Square Manhattan, an IHG Hotel",
        "link": "https://www.tripadvisor.com/HotelHighlight-g60763-d93454-Reviews-Crowne_Plaza_Times_Square_Manhattan_an_IHG_Hotel-New_York_City_New_York.html",
        "reviews": 12260,
        "rating": 4,
        "price_range_usd": {
          "min": 252,
          "max": 425
        },
        "phone": "+1 212-977-4000",
        "address": "1605 Broadway, New York City, NY 10019",
        "detailed_address": {
          "street": "1605 Broadway",
          "city": "New York City",
          "postal_code": "10019",
          "state": "New York",
          "country": "United States"
        },
        "ranking": {
          "current_rank": 375,
          "total": 503
        },
        "featured_image": null,
        "latitude": 40.760742,
        "longitude": -73.98506,
        "amenities": [
          "Room service"
        ],
        "providers": [
          "Booking.com",
          "Hotels.com",
          "Expedia.com",
          "Skyscanner.com"
        ]
      },
      {
        "id": 23383444,
        "name": "Hilton Club The Central at 5th New York",
        "link": "https://www.tripadvisor.com/HotelHighlight-g60763-d23383444-Reviews-Hilton_Club_The_Central_at_5th_New_York-New_York_City_New_York.html",
        "reviews": 101,
        "rating": 4.5,
        "price_range_usd": {
          "min": 334,
          "max": 505
        },
        "phone": "+1 646-869-8900",
        "address": "12 East 48th Street, New York City, NY 10017",
        "detailed_address": {
          "street": "12 East 48th Street",
          "city": "New York City",
          "postal_code": "10017",
          "state": "New York",
          "country": "United States"
        },
        "ranking": {
          "current_rank": 306,
          "total": 503
        },
        "featured_image": null,
        "latitude": 40.75662,
        "longitude": -73.97696,
        "amenities": [
          "Free Wifi",
          "Fitness center"
        ],
        "providers": [
          "Hilton"
        ]
      },
      {
        "id": 93450,
        "name": "Hyatt Grand Central New York",
        "link": "https://www.tripadvisor.com/HotelHighlight-g60763-d93450-Reviews-Hyatt_Grand_Central_New_York-New_York_City_New_York.html",
        "reviews": 13828,
        "rating": 3.5,
        "price_range_usd": {
          "min": 268,
          "max": 391
        },
        "phone": "+1 212-883-1234",
        "address": "109 East 42nd Street At Grand Central Terminal, New York City, NY 10017-8500",
        "detailed_address": {
          "street": "109 East 42nd Street, At Grand Central Terminal",
          "city": "New York City",
          "postal_code": "10017-8500",
          "state": "New York",
          "country": "United States"
        },
        "ranking": {
          "current_rank": 410,
          "total": 503
        },
        "featured_image": null,
        "latitude": 40.752064,
        "longitude": -73.9763,
        "amenities": [
          "Free Wifi",
          "Fitness center"
        ],
        "providers": [
          "Booking.com",
          "Expedia.com",
          "Hotels.com",
          "Trip.com"
        ]
      },
      {
        "id": 7891458,
        "name": "Arlo SoHo",
        "link": "https://www.tripadvisor.com/HotelHighlight-g60763-d7891458-Reviews-Arlo_SoHo-New_York_City_New_York.html",
        "reviews": 3188,
        "rating": 4.5,
        "price_range_usd": {
          "min": 237,
          "max": 391
        },
        "phone": "+1 212-342-7000",
        "address": "231 Hudson Street, New York City, NY 10013",
        "detailed_address": {
          "street": "231 Hudson Street",
          "city": "New York City",
          "postal_code": "10013",
          "state": "New York",
          "country": "United States"
        },
        "ranking": {
          "current_rank": 25,
          "total": 503
        },
        "featured_image": null,
        "latitude": 40.72449,
        "longitude": -74.00797,
        "amenities": [
          "Free Wifi",
          "Restaurant",
          "Room service",
          "Bar/Lounge"
        ],
        "providers": [
          "Booking.com",
          "Hotels.com",
          "Expedia.com",
          "Agoda.com"
        ]
      },
      {
        "id": 671150,
        "name": "The Empire Hotel",
        "link": "https://www.tripadvisor.com/HotelHighlight-g60763-d671150-Reviews-The_Empire_Hotel-New_York_City_New_York.html",
        "reviews": 8869,
        "rating": 3.5,
        "price_range_usd": {
          "min": 198,
          "max": 358
        },
        "phone": "+1 212-265-7400",
        "address": "44 West 63rd Street, New York City, NY 10023-7029",
        "detailed_address": {
          "street": "44 West 63rd Street",
          "city": "New York City",
          "postal_code": "10023-7029",
          "state": "New York",
          "country": "United States"
        },
        "ranking": {
          "current_rank": 322,
          "total": 503
        },
        "featured_image": null,
        "latitude": 40.771496,
        "longitude": -73.982666,
        "amenities": [
          "Pool",
          "Restaurant",
          "Bar/Lounge",
          "Fitness center"
        ],
        "providers": [
          "Booking.com",
          "Expedia.com",
          "Hotels.com",
          "Skyscanner.com"
        ]
      },
      {
        "id": 15237449,
        "name": "Artezen Hotel",
        "link": "https://www.tripadvisor.com/HotelHighlight-g60763-d15237449-Reviews-Artezen_Hotel-New_York_City_New_York.html",
        "reviews": 550,
        "rating": 5,
        "price_range_usd": {
          "min": 215,
          "max": 356
        },
        "phone": "+1 212-566-5511",
        "address": "24 John Street, New York City, NY 10038-4020",
        "detailed_address": {
          "street": "24 John Street",
          "city": "New York City",
          "postal_code": "10038-4020",
          "state": "New York",
          "country": "United States"
        },
        "ranking": {
          "current_rank": 29,
          "total": 503
        },
        "featured_image": null,
        "latitude": 40.709583,
        "longitude": -74.00874,
        "amenities": [
          "Free Wifi",
          "Fitness center"
        ],
        "providers": [
          "Booking.com",
          "Hotels.com",
          "Agoda.com",
          "Vio.com"
        ]
      },
      {
        "id": 12551350,
        "name": "Pod Times Square",
        "link": "https://www.tripadvisor.com/HotelHighlight-g60763-d12551350-Reviews-Pod_Times_Square-New_York_City_New_York.html",
        "reviews": 2820,
        "rating": 4,
        "price_range_usd": {
          "min": 168,
          "max": 275
        },
        "phone": "+1 844-763-7666",
        "address": "400 W 42nd St, New York City, NY 10036-6809",
        "detailed_address": {
          "street": "400 W 42nd St",
          "city": "New York City",
          "postal_code": "10036-6809",
          "state": "New York",
          "country": "United States"
        },
        "ranking": {
          "current_rank": 160,
          "total": 503
        },
        "featured_image": null,
        "latitude": 40.758465,
        "longitude": -73.9931,
        "amenities": [
          "Free Wifi",
          "Restaurant",
          "Bar/Lounge"
        ],
        "providers": [
          "Booking.com",
          "Hotels.com",
          "Expedia.com",
          "KLOOK"
        ]
      },
      {
        "id": 234762,
        "name": "Hilton Club The Quin New York",
        "link": "https://www.tripadvisor.com/HotelHighlight-g60763-d234762-Reviews-Hilton_Club_The_Quin_New_York-New_York_City_New_York.html",
        "reviews": 3748,
        "rating": 4.5,
        "price_range_usd": {
          "min": 343,
          "max": 500
        },
        "phone": "+1 212-245-7846",
        "address": "101 W. 57th Street at 6th Avenue, New York City, NY 10019",
        "detailed_address": {
          "street": "101 W. 57th Street, at 6th Avenue",
          "city": "New York City",
          "postal_code": "10019",
          "state": "New York",
          "country": "United States"
        },
        "ranking": {
          "current_rank": 198,
          "total": 503
        },
        "featured_image": null,
        "latitude": 40.76439,
        "longitude": -73.97747,
        "amenities": [
          "Free Wifi",
          "Fitness center"
        ],
        "providers": [
          "Hilton"
        ]
      },
      {
        "id": 17783246,
        "name": "Moxy NYC East Village",
        "link": "https://www.tripadvisor.com/HotelHighlight-g60763-d17783246-Reviews-Moxy_NYC_East_Village-New_York_City_New_York.html",
        "reviews": 1308,
        "rating": 5,
        "price_range_usd": {
          "min": 253,
          "max": 450
        },
        "phone": "+1 212-288-6699",
        "address": "112 East 11th Street, New York City, NY 10003",
        "detailed_address": {
          "street": "112 East 11th Street",
          "city": "New York City",
          "postal_code": "10003",
          "state": "New York",
          "country": "United States"
        },
        "ranking": {
          "current_rank": 13,
          "total": 503
        },
        "featured_image": null,
        "latitude": 40.731506,
        "longitude": -73.989555,
        "amenities": [
          "Free Wifi",
          "Restaurant",
          "Bar/Lounge",
          "Fitness center"
        ],
        "providers": [
          "Booking.com",
          "Expedia.com",
          "Hotels.com",
          "Trip.com"
        ]
      },
      {
        "id": 2173604,
        "name": "Dream Downtown",
        "link": "https://www.tripadvisor.com/HotelHighlight-g60763-d2173604-Reviews-Dream_Downtown-New_York_City_New_York.html",
        "reviews": 4569,
        "rating": 4,
        "price_range_usd": {
          "min": 265,
          "max": 431
        },
        "phone": "+1 212-229-2559",
        "address": "355 West 16 Street, New York City, NY 10011",
        "detailed_address": {
          "street": "355 West 16 Street",
          "city": "New York City",
          "postal_code": "10011",
          "state": "New York",
          "country": "United States"
        },
        "ranking": {
          "current_rank": 317,
          "total": 503
        },
        "featured_image": null,
        "latitude": 40.742477,
        "longitude": -74.00335,
        "amenities": [
          "Free Wifi",
          "Pool",
          "Restaurant",
          "Room service",
          "Bar/Lounge"
        ],
        "providers": [
          "Booking.com",
          "Hotels.com",
          "Expedia.com",
          "Skyscanner.com"
        ]
      },
      {
        "id": 8035866,
        "name": "Hampton Inn Manhattan/times Square Central",
        "link": "https://www.tripadvisor.com/HotelHighlight-g60763-d8035866-Reviews-Hampton_Inn_Manhattan_times_Square_Central-New_York_City_New_York.html",
        "reviews": 3690,
        "rating": 4.5,
        "price_range_usd": {
          "min": 232,
          "max": 362
        },
        "phone": "+1 212-221-1188",
        "address": "220 West 41st St., New York City, NY 10036-7203",
        "detailed_address": {
          "street": "220 West 41st St.",
          "city": "New York City",
          "postal_code": "10036-7203",
          "state": "New York",
          "country": "United States"
        },
        "ranking": {
          "current_rank": 163,
          "total": 503
        },
        "featured_image": null,
        "latitude": 40.7556,
        "longitude": -73.9887,
        "amenities": [
          "Free Wifi",
          "Breakfast included",
          "Fitness center"
        ],
        "providers": [
          "Hampton",
          "Booking.com",
          "Expedia.com",
          "Skyscanner.com"
        ]
      },
      {
        "id": 26335829,
        "name": "Motto By Hilton New York City Times Square",
        "link": "https://www.tripadvisor.com/HotelHighlight-g60763-d26335829-Reviews-Motto_By_Hilton_New_York_City_Times_Square-New_York_City_New_York.html",
        "reviews": 138,
        "rating": 4.5,
        "price_range_usd": {
          "min": 223,
          "max": 309
        },
        "phone": "+1 212-668-8648",
        "address": "150 A West 48th Street, New York City, NY 10036",
        "detailed_address": {
          "street": "150 A West 48th Street",
          "city": "New York City",
          "postal_code": "10036",
          "state": "New York",
          "country": "United States"
        },
        "ranking": {
          "current_rank": 258,
          "total": 503
        },
        "featured_image": null,
        "latitude": 40.75932,
        "longitude": -73.983536,
        "amenities": [
          "Free Wifi",
          "Restaurant",
          "Bar/Lounge",
          "Fitness center"
        ],
        "providers": [
          "Motto",
          "Booking.com",
          "Expedia.com",
          "Hotels.com"
        ]
      },
      {
        "id": 11998087,
        "name": "Embassy Suites by Hilton New York Manhattan Times Square",
        "link": "https://www.tripadvisor.com/HotelHighlight-g60763-d11998087-Reviews-Embassy_Suites_by_Hilton_New_York_Manhattan_Times_Square-New_York_City_New_York.html",
        "reviews": 1634,
        "rating": 4,
        "price_range_usd": {
          "min": 248,
          "max": 419
        },
        "phone": "+1 212-912-0111",
        "address": "60 West 37th Street, New York City, NY 10018",
        "detailed_address": {
          "street": "60 West 37th Street",
          "city": "New York City",
          "postal_code": "10018",
          "state": "New York",
          "country": "United States"
        },
        "ranking": {
          "current_rank": 244,
          "total": 503
        },
        "featured_image": null,
        "latitude": 40.75134,
        "longitude": -73.98582,
        "amenities": [
          "Free Wifi",
          "Breakfast included",
          "Restaurant",
          "Room service",
          "Bar/Lounge"
        ],
        "providers": [
          "Embassy",
          "Booking.com",
          "Expedia.com",
          "Skyscanner.com"
        ]
      },
      {
        "id": 1308397,
        "name": "Hilton Club West 57th Street New York",
        "link": "https://www.tripadvisor.com/HotelHighlight-g60763-d1308397-Reviews-Hilton_Club_West_57th_Street_New_York-New_York_City_New_York.html",
        "reviews": 1946,
        "rating": 4.5,
        "price_range_usd": {
          "min": 373,
          "max": 498
        },
        "phone": "+1 212-379-0103",
        "address": "102 West 57th Street, New York City, NY 10019",
        "detailed_address": {
          "street": "102 West 57th Street",
          "city": "New York City",
          "postal_code": "10019",
          "state": "New York",
          "country": "United States"
        },
        "ranking": {
          "current_rank": 99,
          "total": 503
        },
        "featured_image": null,
        "latitude": 40.76444,
        "longitude": -73.978035,
        "amenities": [
          "Free Wifi"
        ],
        "providers": [
          "Hilton"
        ]
      },
      {
        "id": 93507,
        "name": "New York Marriott Marquis",
        "link": "https://www.tripadvisor.com/HotelHighlight-g60763-d93507-Reviews-New_York_Marriott_Marquis-New_York_City_New_York.html",
        "reviews": 13652,
        "rating": 4,
        "price_range_usd": {
          "min": 426,
          "max": 627
        },
        "phone": "+1 212-398-1900",
        "address": "1535 Broadway, New York City, NY 10036",
        "detailed_address": {
          "street": "1535 Broadway",
          "city": "New York City",
          "postal_code": "10036",
          "state": "New York",
          "country": "United States"
        },
        "ranking": {
          "current_rank": 264,
          "total": 503
        },
        "featured_image": null,
        "latitude": 40.758583,
        "longitude": -73.98582,
        "amenities": [
          "Restaurant",
          "Room service",
          "Bar/Lounge",
          "Fitness center"
        ],
        "providers": [
          "Booking.com",
          "Hotels.com",
          "Expedia.com",
          "Algotels"
        ]
      },
      {
        "id": 93437,
        "name": "Hotel Edison",
        "link": "https://www.tripadvisor.com/HotelHighlight-g60763-d93437-Reviews-Hotel_Edison-New_York_City_New_York.html",
        "reviews": 16097,
        "rating": 4,
        "price_range_usd": {
          "min": 217,
          "max": 402
        },
        "phone": "+1 212-840-5000",
        "address": "228 West 47th Street, New York City, NY 10036-1401",
        "detailed_address": {
          "street": "228 West 47th Street",
          "city": "New York City",
          "postal_code": "10036-1401",
          "state": "New York",
          "country": "United States"
        },
        "ranking": {
          "current_rank": 248,
          "total": 503
        },
        "featured_image": null,
        "latitude": 40.759735,
        "longitude": -73.98615,
        "amenities": [
          "Bar/Lounge",
          "Fitness center"
        ],
        "providers": [
          "Booking.com",
          "Priceline",
          "Algotels",
          "Agoda.com"
        ]
      },
      {
        "id": 208453,
        "name": "Hilton New York Times Square",
        "link": "https://www.tripadvisor.com/HotelHighlight-g60763-d208453-Reviews-Hilton_New_York_Times_Square-New_York_City_New_York.html",
        "reviews": 8642,
        "rating": 4.5,
        "price_range_usd": {
          "min": 260,
          "max": 393
        },
        "phone": "+1 212-913-9488",
        "address": "234 West 42nd Street, New York City, NY 10036",
        "detailed_address": {
          "street": "234 West 42nd Street",
          "city": "New York City",
          "postal_code": "10036",
          "state": "New York",
          "country": "United States"
        },
        "ranking": {
          "current_rank": 311,
          "total": 503
        },
        "featured_image": null,
        "latitude": 40.756603,
        "longitude": -73.98883,
        "amenities": [
          "Restaurant",
          "Bar/Lounge",
          "Fitness center"
        ],
        "providers": [
          "Hilton",
          "Hotels.com",
          "Booking.com",
          "Skyscanner.com"
        ]
      },
      {
        "id": 10541730,
        "name": "Arlo NoMad",
        "link": "https://www.tripadvisor.com/HotelHighlight-g60763-d10541730-Reviews-Arlo_NoMad-New_York_City_New_York.html",
        "reviews": 2392,
        "rating": 4.5,
        "price_range_usd": {
          "min": 234,
          "max": 368
        },
        "phone": "+1 212-806-7000",
        "address": "11 East 31st Street, New York City, NY 10016",
        "detailed_address": {
          "street": "11 East 31st Street",
          "city": "New York City",
          "postal_code": "10016",
          "state": "New York",
          "country": "United States"
        },
        "ranking": {
          "current_rank": 38,
          "total": 503
        },
        "featured_image": null,
        "latitude": 40.74627,
        "longitude": -73.98494,
        "amenities": [
          "Free Wifi",
          "Restaurant",
          "Bar/Lounge"
        ],
        "providers": [
          "Booking.com",
          "Hotels.com",
          "Expedia.com",
          "Skyscanner.com"
        ]
      },
      {
        "id": 93610,
        "name": "Royalton New York",
        "link": "https://www.tripadvisor.com/HotelHighlight-g60763-d93610-Reviews-Royalton_New_York-New_York_City_New_York.html",
        "reviews": 3314,
        "rating": 4,
        "price_range_usd": {
          "min": 211,
          "max": 384
        },
        "phone": "+1 212-869-4400",
        "address": "44 West 44th Street, New York City, NY 10036-6604",
        "detailed_address": {
          "street": "44 West 44th Street",
          "city": "New York City",
          "postal_code": "10036-6604",
          "state": "New York",
          "country": "United States"
        },
        "ranking": {
          "current_rank": 256,
          "total": 503
        },
        "featured_image": null,
        "latitude": 40.755596,
        "longitude": -73.98231,
        "amenities": [
          "Fitness center"
        ],
        "providers": [
          "Booking.com",
          "Expedia.com",
          "Vio.com",
          "Skyscanner.com"
        ]
      },
      {
        "id": 1379306,
        "name": "The Hilton Club - New York",
        "link": "https://www.tripadvisor.com/HotelHighlight-g60763-d1379306-Reviews-The_Hilton_Club_New_York-New_York_City_New_York.html",
        "reviews": 924,
        "rating": 4.5,
        "price_range_usd": {
          "min": 375,
          "max": 526
        },
        "phone": "+1 646-459-6500",
        "address": "1335 Avenue Of The Americas ,37th Fl, New York City, NY 10019",
        "detailed_address": {
          "street": "1335 Avenue Of The Americas, ,37th Fl",
          "city": "New York City",
          "postal_code": "10019",
          "state": "New York",
          "country": "United States"
        },
        "ranking": {
          "current_rank": 185,
          "total": 503
        },
        "featured_image": null,
        "latitude": 40.76225,
        "longitude": -73.97919,
        "amenities": [
          "Free Wifi",
          "Bar/Lounge",
          "Fitness center"
        ],
        "providers": [
          "Hilton"
        ]
      },
      {
        "id": 93390,
        "name": "Hotel Belleclaire",
        "link": "https://www.tripadvisor.com/HotelHighlight-g60763-d93390-Reviews-Hotel_Belleclaire-New_York_City_New_York.html",
        "reviews": 5027,
        "rating": 4,
        "price_range_usd": {
          "min": 234,
          "max": 429
        },
        "phone": "+1 212-362-7700",
        "address": "2175 Broadway, New York City, NY 10024-6686",
        "detailed_address": {
          "street": "2175 Broadway",
          "city": "New York City",
          "postal_code": "10024-6686",
          "state": "New York",
          "country": "United States"
        },
        "ranking": {
          "current_rank": 52,
          "total": 503
        },
        "featured_image": null,
        "latitude": 40.782486,
        "longitude": -73.98117,
        "amenities": [
          "Free Wifi",
          "Room service",
          "Fitness center"
        ],
        "providers": [
          "Booking.com",
          "Expedia.com",
          "Hotels.com",
          "Agoda.com"
        ]
      },
      {
        "id": 75711,
        "name": "The Gallivant Times Square",
        "link": "https://www.tripadvisor.com/HotelHighlight-g60763-d75711-Reviews-The_Gallivant_Times_Square-New_York_City_New_York.html",
        "reviews": 3454,
        "rating": 3.5,
        "price_range_usd": {
          "min": 172,
          "max": 259
        },
        "phone": "+1 212-246-8800",
        "address": "234 W 48th St, New York City, NY 10036",
        "detailed_address": {
          "street": "234 W 48th St",
          "city": "New York City",
          "postal_code": "10036",
          "state": "New York",
          "country": "United States"
        },
        "ranking": {
          "current_rank": 483,
          "total": 503
        },
        "featured_image": null,
        "latitude": 40.760544,
        "longitude": -73.98633,
        "amenities": [
          "Free Wifi",
          "Restaurant",
          "Bar/Lounge"
        ],
        "providers": [
          "Booking.com",
          "Priceline",
          "Agoda.com",
          "Skyscanner.com"
        ]
      },
      {
        "id": 12297961,
        "name": "Hilton Garden Inn NYC Financial Center / Manhattan Downtown",
        "link": "https://www.tripadvisor.com/HotelHighlight-g60763-d12297961-Reviews-Hilton_Garden_Inn_NYC_Financial_Center_Manhattan_Downtown-New_York_City_New_York.html",
        "reviews": 1358,
        "rating": 4.5,
        "price_range_usd": {
          "min": 192,
          "max": 328
        },
        "phone": "+1 212-248-1100",
        "address": "6 Water Street, New York City, NY 10004",
        "detailed_address": {
          "street": "6 Water Street",
          "city": "New York City",
          "postal_code": "10004",
          "state": "New York",
          "country": "United States"
        },
        "ranking": {
          "current_rank": 41,
          "total": 503
        },
        "featured_image": null,
        "latitude": 40.70296,
        "longitude": -74.01228,
        "amenities": [
          "Free Wifi",
          "Restaurant",
          "Room service",
          "Bar/Lounge",
          "Fitness center"
        ],
        "providers": [
          "Hilton Garden Inn",
          "Booking.com",
          "Expedia.com",
          "Algotels"
        ]
      },
      {
        "id": 93612,
        "name": "Shoreham Hotel",
        "link": "https://www.tripadvisor.com/HotelHighlight-g60763-d93612-Reviews-Shoreham_Hotel-New_York_City_New_York.html",
        "reviews": 2761,
        "rating": 4,
        "price_range_usd": {
          "min": 178,
          "max": 346
        },
        "phone": "+1 212-247-6700",
        "address": "33 W 55th Street, New York City, NY 10019",
        "detailed_address": {
          "street": "33 W 55th Street",
          "city": "New York City",
          "postal_code": "10019",
          "state": "New York",
          "country": "United States"
        },
        "ranking": {
          "current_rank": 298,
          "total": 503
        },
        "featured_image": null,
        "latitude": 40.762505,
        "longitude": -73.97642,
        "amenities": [
          "Restaurant",
          "Room service",
          "Bar/Lounge",
          "Fitness center"
        ],
        "providers": [
          "Booking.com",
          "Expedia.com",
          "Hotels.com",
          "Skyscanner.com"
        ]
      },
      {
        "id": 12533513,
        "name": "PUBLIC Hotel",
        "link": "https://www.tripadvisor.com/HotelHighlight-g60763-d12533513-Reviews-PUBLIC_Hotel-New_York_City_New_York.html",
        "reviews": 2019,
        "rating": 4.5,
        "price_range_usd": {
          "min": 207,
          "max": 438
        },
        "phone": "+1 212-735-6000",
        "address": "215 Chrystie Street, New York City, NY 10002",
        "detailed_address": {
          "street": "215 Chrystie Street",
          "city": "New York City",
          "postal_code": "10002",
          "state": "New York",
          "country": "United States"
        },
        "ranking": {
          "current_rank": 20,
          "total": 503
        },
        "featured_image": null,
        "latitude": 40.723003,
        "longitude": -73.99175,
        "amenities": [
          "Free Wifi",
          "Restaurant",
          "Bar/Lounge",
          "Fitness center"
        ],
        "providers": [
          "Hotels.com",
          "Trip.com",
          "Expedia.com",
          "Skyscanner.com"
        ]
      },
      {
        "id": 25364271,
        "name": "Home2 Suites by Hilton New York Times Square",
        "link": "https://www.tripadvisor.com/HotelHighlight-g60763-d25364271-Reviews-Home2_Suites_by_Hilton_New_York_Times_Square-New_York_City_New_York.html",
        "reviews": 52,
        "rating": 3.5,
        "price_range_usd": {
          "min": 242,
          "max": 403
        },
        "phone": "+1 212-329-3010",
        "address": "150 W 48th Street, New York City, NY 10017",
        "detailed_address": {
          "street": "150 W 48th Street",
          "city": "New York City",
          "postal_code": "10017",
          "state": "New York",
          "country": "United States"
        },
        "ranking": {
          "current_rank": 422,
          "total": 503
        },
        "featured_image": null,
        "latitude": 40.759502,
        "longitude": -73.98363,
        "amenities": [
          "Free Wifi",
          "Breakfast included",
          "Fitness center"
        ],
        "providers": [
          "Hampton"
        ]
      }
    ]
  }