{
  "link": "https://www.tripadvisor.com/Hotels-g297654-Pune_Pune_District_Maharashtra-Hotels.html",
  "total_pages": 80,
  "current_page": 1,
  "total_items_count": 2381,
  "items_count": 31,
  "results": [
    {
      "id": 619336,
      "name": "The Corinthians Resort & Club",
      "link": "https://www.tripadvisor.com/Hotel_Review-g297654-d619336-Reviews-The_Corinthians_Resort_Club-Pune_Pune_District_Maharashtra.html",
      "reviews": 3569,
      "rating": 4.7,
      "price_range_usd": {
        "min": 86,
        "max": 122
      },
      "phone": "+91 20 2695 2222",
      "address": "Corinthians Club Internal Rd NIBM Annex, Pune 411060 India",
      "detailed_address": {
        "street": "Corinthians Club Internal Rd, NIBM Annex",
        "city": "Pune",
        "postal_code": "411060",
        "state": "Maharashtra",
        "country": "India"
      },
      "ranking": {
        "current_rank": 14,
        "total": 359
      },
      "featured_image": null,
      "latitude": 18.463272,
      "longitude": 73.919304,
      "amenities": [
        "Free parking",
        "Pool",
        "Outdoor pool",
        "Restaurant",
        "Airport transportation"
      ],
      "providers": [
        "Expedia.com"
      ]
    },
    {
      "id": 1866256,
      "name": "Hyatt Pune",
      "link": "https://www.tripadvisor.com/Hotel_Review-g297654-d1866256-Reviews-Hyatt_Pune-Pune_Pune_District_Maharashtra.html",
      "reviews": 4551,
      "rating": 4.6,
      "price_range_usd": {
        "min": 76,
        "max": 103
      },
      "phone": "+91 20 4141 1234",
      "address": "88, Nagar Road Adjacent To Aga Khan Palace, Pune 411006 India",
      "detailed_address": {
        "street": "88, Nagar Road, Adjacent To Aga Khan Palace",
        "city": "Pune",
        "postal_code": "411006",
        "state": "Maharashtra",
        "country": "India"
      },
      "ranking": {
        "current_rank": 18,
        "total": 359
      },
      "featured_image": null,
      "latitude": 18.55421,
      "longitude": 73.9047,
      "amenities": [
        "Free Wifi",
        "Free parking",
        "Breakfast included",
        "Pool",
        "Outdoor pool"
      ],
      "providers": [
        "Expedia.com"
      ]
    },
    {
      "id": 12423554,
      "name": "Amanora the Fern Hotels and Club",
      "link": "https://www.tripadvisor.com/Hotel_Review-g297654-d12423554-Reviews-Amanora_the_Fern_Hotels_and_Club-Pune_Pune_District_Maharashtra.html",
      "reviews": 3696,
      "rating": 4.9,
      "price_range_usd": {
        "min": 45,
        "max": 80
      },
      "phone": "+91 20 6740 9888",
      "address": "Magarpatta Road Amanora Park Town, Pune 411028 India",
      "detailed_address": {
        "street": "Magarpatta Road, Amanora Park Town",
        "city": "Pune",
        "postal_code": "411028",
        "state": "Maharashtra",
        "country": "India"
      },
      "ranking": {
        "current_rank": 6,
        "total": 359
      },
      "featured_image": null,
      "latitude": 18.518162,
      "longitude": 73.94172,
      "amenities": [
        "Free Wifi",
        "Free parking",
        "Breakfast included",
        "Pool",
        "Indoor pool"
      ],
      "providers": [
        "Expedia.com"
      ]
    },
    {
      "id": 5600236,
      "name": "Novotel Pune Nagar Road",
      "link": "https://www.tripadvisor.com/Hotel_Review-g297654-d5600236-Reviews-Novotel_Pune_Nagar_Road-Pune_Pune_District_Maharashtra.html",
      "reviews": 3056,
      "rating": 4.6,
      "price_range_usd": {
        "min": 62,
        "max": 94
      },
      "phone": "+91 20 6705 6000",
      "address": "Samrat Ashok Road Weikfield IT City Infopark, Pune 411014 India",
      "detailed_address": {
        "street": "Samrat Ashok Road, Weikfield IT City Infopark",
        "city": "Pune",
        "postal_code": "411014",
        "state": "Maharashtra",
        "country": "India"
      },
      "ranking": {
        "current_rank": 44,
        "total": 359
      },
      "featured_image": null,
      "latitude": 18.55888,
      "longitude": 73.910904,
      "amenities": [
        "Free parking",
        "Pool",
        "Outdoor pool",
        "Restaurant",
        "Airport transportation"
      ],
      "providers": [
        "Expedia.com"
      ]
    },
    {
      "id": 8625588,
      "name": "Conrad Pune",
      "link": "https://www.tripadvisor.com/Hotel_Review-g297654-d8625588-Reviews-Conrad_Pune-Pune_Pune_District_Maharashtra.html",
      "reviews": 4578,
      "rating": 4.9,
      "price_range_usd": {
        "min": 150,
        "max": 190
      },
      "phone": "+91 20 6745 6745",
      "address": "7 Mangaldas Road, Pune 411001 India",
      "detailed_address": {
        "street": "7 Mangaldas Road",
        "city": "Pune",
        "postal_code": "411001",
        "state": "Maharashtra",
        "country": "India"
      },
      "ranking": {
        "current_rank": 3,
        "total": 359
      },
      "featured_image": null,
      "latitude": 18.535065,
      "longitude": 73.88305,
      "amenities": [
        "Free Wifi",
        "Free parking",
        "Breakfast included",
        "Pool",
        "Heated pool"
      ],
      "providers": [
        "Expedia.com"
      ]
    },
    {
      "id": 1092010,
      "name": "O Hotel Pune.",
      "link": "https://www.tripadvisor.com/Hotel_Review-g297654-d1092010-Reviews-O_Hotel_Pune-Pune_Pune_District_Maharashtra.html",
      "reviews": 1471,
      "rating": 4.1,
      "price_range_usd": {
        "min": 72,
        "max": 88
      },
      "phone": "+91 20 4001 1000",
      "address": "North Main Road Koregaon Park, Pune 411001 India",
      "detailed_address": {
        "street": "North Main Road, Koregaon Park",
        "city": "Pune",
        "postal_code": "411001",
        "state": "Maharashtra",
        "country": "India"
      },
      "ranking": {
        "current_rank": 41,
        "total": 359
      },
      "featured_image": null,
      "latitude": 18.539742,
      "longitude": 73.887825,
      "amenities": [
        "Free Wifi",
        "Free parking",
        "Pool",
        "Outdoor pool",
        "Restaurant"
      ],
      "providers": [
        "Booking.com"
      ]
    },
    {
      "id": 305515,
      "name": "Blue Diamond - Ihcl Seleqtions",
      "link": "https://www.tripadvisor.com/Hotel_Review-g297654-d305515-Reviews-Blue_Diamond_Ihcl_Seleqtions-Pune_Pune_District_Maharashtra.html",
      "reviews": 2196,
      "rating": 4.4,
      "price_range_usd": {
        "min": 75,
        "max": 105
      },
      "phone": "+91 20 6602 5555",
      "address": "11 Koregaon Road, Pune 411001 India",
      "detailed_address": {
        "street": "11 Koregaon Road",
        "city": "Pune",
        "postal_code": "411001",
        "state": "Maharashtra",
        "country": "India"
      },
      "ranking": {
        "current_rank": 40,
        "total": 359
      },
      "featured_image": null,
      "latitude": 18.5383,
      "longitude": 73.8865,
      "amenities": [
        "Free Wifi",
        "Free parking",
        "Breakfast included",
        "Pool",
        "Outdoor pool"
      ],
      "providers": [
        "Booking.com"
      ]
    },
    {
      "id": 1655450,
      "name": "Radisson Blu Hotel, Pune Kharadi",
      "link": "https://www.tripadvisor.com/Hotel_Review-g297654-d1655450-Reviews-Radisson_Blu_Hotel_Pune_Kharadi-Pune_Pune_District_Maharashtra.html",
      "reviews": 3694,
      "rating": 4.7,
      "price_range_usd": {
        "min": 82,
        "max": 114
      },
      "phone": "+91 20 2706 0606",
      "address": "Nagar Bypass Road Kharadi, Pune 411014 India",
      "detailed_address": {
        "street": "Nagar Bypass Road, Kharadi",
        "city": "Pune",
        "postal_code": "411014",
        "state": "Maharashtra",
        "country": "India"
      },
      "ranking": {
        "current_rank": 8,
        "total": 359
      },
      "featured_image": null,
      "latitude": 18.553411,
      "longitude": 73.9379,
      "amenities": [
        "Free Wifi",
        "Free parking",
        "Breakfast included",
        "Pool",
        "Outdoor pool"
      ],
      "providers": [
        "Expedia.com"
      ]
    },
    {
      "id": 1026273,
      "name": "Royal Orchid Central Pune",
      "link": "https://www.tripadvisor.com/Hotel_Review-g297654-d1026273-Reviews-Royal_Orchid_Central_Pune-Pune_Pune_District_Maharashtra.html",
      "reviews": 2280,
      "rating": 4.6,
      "price_range_usd": {
        "min": 46,
        "max": 65
      },
      "phone": "+91 90963 00004",
      "address": "Kalyani Nagar Marisoft Annexe, Pune 411014 India",
      "detailed_address": {
        "street": "Kalyani Nagar, Marisoft Annexe",
        "city": "Pune",
        "postal_code": "411014",
        "state": "Maharashtra",
        "country": "India"
      },
      "ranking": {
        "current_rank": 12,
        "total": 359
      },
      "featured_image": null,
      "latitude": 18.54645,
      "longitude": 73.90665,
      "amenities": [
        "Free Wifi",
        "Free parking",
        "Breakfast included",
        "Pool",
        "Indoor pool"
      ],
      "providers": [
        "Expedia.com"
      ]
    },
    {
      "id": 17620462,
      "name": "The Ritz-Carlton, Pune",
      "link": "https://www.tripadvisor.com/Hotel_Review-g297654-d17620462-Reviews-The_Ritz_Carlton_Pune-Pune_Pune_District_Maharashtra.html",
      "reviews": 1171,
      "rating": 4.9,
      "price_range_usd": {
        "min": 243,
        "max": 293
      },
      "phone": "+91 20 6767 5000",
      "address": "Golf Course Square Airport Road, Yerwada, Pune 411006 India",
      "detailed_address": {
        "street": "Golf Course Square, Airport Road, Yerwada",
        "city": "Pune",
        "postal_code": "411006",
        "state": "Maharashtra",
        "country": "India"
      },
      "ranking": {
        "current_rank": 2,
        "total": 359
      },
      "featured_image": null,
      "latitude": 18.552467,
      "longitude": 73.891,
      "amenities": [
        "Free Wifi",
        "Free parking",
        "Outdoor pool",
        "Restaurant",
        "Airport transportation"
      ],
      "providers": [
        "RitzCarlton.com"
      ]
    },
    {
      "id": 2037993,
      "name": "Four Points By Sheraton Hotel & Serviced Apartments, Pune",
      "link": "https://www.tripadvisor.com/Hotel_Review-g297654-d2037993-Reviews-Four_Points_By_Sheraton_Hotel_Serviced_Apartments_Pune-Pune_Pune_District_Maharashtra.html",
      "reviews": 2657,
      "rating": 4.6,
      "price_range_usd": {
        "min": 67,
        "max": 104
      },
      "phone": "+91 20 6760 6699",
      "address": "5th Mile Stone Viman Nagar, Pune 411014 India",
      "detailed_address": {
        "street": "5th Mile Stone, Viman Nagar",
        "city": "Pune",
        "postal_code": "411014",
        "state": "Maharashtra",
        "country": "India"
      },
      "ranking": {
        "current_rank": 22,
        "total": 359
      },
      "featured_image": null,
      "latitude": 18.56009,
      "longitude": 73.914825,
      "amenities": [
        "Free Wifi",
        "Free parking",
        "Pool",
        "Outdoor pool",
        "Restaurant"
      ],
      "providers": [
        "Booking.com"
      ]
    },
    {
      "id": 1986489,
      "name": "Cocoon Hotel",
      "link": "https://www.tripadvisor.com/Hotel_Review-g297654-d1986489-Reviews-Cocoon_Hotel-Pune_Pune_District_Maharashtra.html",
      "reviews": 1399,
      "rating": 4.7,
      "price_range_usd": {
        "min": 53,
        "max": 83
      },
      "phone": "+91 20 6624 4444",
      "address": "Near South Gate, Magartta City, Hadapsar, Pune 411013 India",
      "detailed_address": {
        "street": "Near South Gate, Magartta City, Hadapsar",
        "city": "Pune",
        "postal_code": "411013",
        "state": "Maharashtra",
        "country": "India"
      },
      "ranking": {
        "current_rank": 23,
        "total": 359
      },
      "featured_image": null,
      "latitude": 18.509085,
      "longitude": 73.9285,
      "amenities": [
        "Free Wifi",
        "Free parking",
        "Breakfast included",
        "Restaurant",
        "Room service"
      ],
      "providers": [
        "Booking.com"
      ]
    },
    {
      "id": 1043544,
      "name": "St Laurn Koregaon Park",
      "link": "https://www.tripadvisor.com/Hotel_Review-g297654-d1043544-Reviews-St_Laurn_Koregaon_Park-Pune_Pune_District_Maharashtra.html",
      "reviews": 1357,
      "rating": 4.2,
      "price_range_usd": {
        "min": 48,
        "max": 80
      },
      "phone": "+91 20 4000 8000",
      "address": "15 A Koregaon Road Vasani Nagar, Koregaon Park, Pune 411001 India",
      "detailed_address": {
        "street": "15 A Koregaon Road, Vasani Nagar, Koregaon Park",
        "city": "Pune",
        "postal_code": "411001",
        "state": "Maharashtra",
        "country": "India"
      },
      "ranking": {
        "current_rank": 31,
        "total": 359
      },
      "featured_image": null,
      "latitude": 18.538559,
      "longitude": 73.88574,
      "amenities": [
        "Free Wifi",
        "Free parking",
        "Breakfast included",
        "Pool",
        "Outdoor pool"
      ],
      "providers": [
        "Expedia.com"
      ]
    },
    {
      "id": 2468858,
      "name": "MTDC Resort, Panshet",
      "link": "https://www.tripadvisor.com/Hotel_Review-g297654-d2468858-Reviews-MTDC_Resort_Panshet-Pune_Pune_District_Maharashtra.html",
      "reviews": 110,
      "rating": 3.7,
      "price_range_usd": {
        "min": 25,
        "max": 33
      },
      "phone": "",
      "address": "Panshet, Tal Velhe, Pune India",
      "detailed_address": {
        "street": "Panshet, Tal Velhe",
        "city": "Pune",
        "postal_code": "",
        "state": "Maharashtra",
        "country": "India"
      },
      "ranking": {
        "current_rank": 16,
        "total": 175
      },
      "featured_image": null,
      "latitude": 18.384045,
      "longitude": 73.61082,
      "amenities": [
        "Free parking",
        "Pool",
        "Outdoor pool",
        "Restaurant",
        "Room service"
      ],
      "providers": [
        "MakeMyTrip"
      ]
    },
    {
      "id": 1485704,
      "name": "ibis Pune Viman Nagar",
      "link": "https://www.tripadvisor.com/Hotel_Review-g297654-d1485704-Reviews-Ibis_Pune_Viman_Nagar-Pune_Pune_District_Maharashtra.html",
      "reviews": 1546,
      "rating": 4.3,
      "price_range_usd": {
        "min": 53,
        "max": 75
      },
      "phone": "+91 20 4018 4018",
      "address": "Survey No 32, Viman Nagar Rd, Pune 411014 India",
      "detailed_address": {
        "street": "Survey No 32, Viman Nagar Rd",
        "city": "Pune",
        "postal_code": "411014",
        "state": "Maharashtra",
        "country": "India"
      },
      "ranking": {
        "current_rank": 39,
        "total": 359
      },
      "featured_image": null,
      "latitude": 18.55959,
      "longitude": 73.913,
      "amenities": [
        "Free Wifi",
        "Free parking",
        "Breakfast included",
        "Restaurant",
        "Airport transportation"
      ],
      "providers": [
        "Booking.com"
      ]
    },
    {
      "id": 629672,
      "name": "Hotel Aurora Towers",
      "link": "https://www.tripadvisor.com/Hotel_Review-g297654-d629672-Reviews-Hotel_Aurora_Towers-Pune_Pune_District_Maharashtra.html",
      "reviews": 300,
      "rating": 3.8,
      "price_range_usd": {
        "min": 45,
        "max": 63
      },
      "phone": "+91 20 2613 1818",
      "address": "9, Moledina Road, Pune 411001 India",
      "detailed_address": {
        "street": "9, Moledina Road",
        "city": "Pune",
        "postal_code": "411001",
        "state": "Maharashtra",
        "country": "India"
      },
      "ranking": {
        "current_rank": 64,
        "total": 359
      },
      "featured_image": null,
      "latitude": 18.518154,
      "longitude": 73.87899,
      "amenities": [
        "Free Wifi",
        "Free parking",
        "Breakfast included",
        "Pool",
        "Outdoor pool"
      ],
      "providers": [
        "Booking.com"
      ]
    },
    {
      "id": 26300302,
      "name": "Silver Oak by StayBird",
      "link": "https://www.tripadvisor.com/Hotel_Review-g297654-d26300302-Reviews-Silver_Oak_by_StayBird-Pune_Pune_District_Maharashtra.html",
      "reviews": 1,
      "rating": 5,
      "price_range_usd": {
        "min": 20,
        "max": 32
      },
      "phone": "+91 93193 14747",
      "address": "SN 5/2/3, opp. to Icon Bliss Opp. Zensar IT Park, Pune 411014 India",
      "detailed_address": {
        "street": "SN 5/2/3, opp. to Icon Bliss, Opp. Zensar IT Park",
        "city": "Pune",
        "postal_code": "411014",
        "state": "Maharashtra",
        "country": "India"
      },
      "ranking": {
        "current_rank": 205,
        "total": 359
      },
      "featured_image": null,
      "latitude": 18.5502,
      "longitude": 73.94347,
      "amenities": [],
      "providers": [
        "Expedia.com"
      ]
    },
    {
      "id": 23656906,
      "name": "AR Suites Jewels Royale",
      "link": "https://www.tripadvisor.com/Hotel_Review-g297654-d23656906-Reviews-AR_Suites_Jewels_Royale-Pune_Pune_District_Maharashtra.html",
      "reviews": 34,
      "rating": 4.4,
      "price_range_usd": {
        "min": 37,
        "max": 66
      },
      "phone": "+91 93117 80181",
      "address": "Rohan Ishita Road Vanshaj Society, Pingale Vasti, Behind Passport Office, Next To Rohan Ishita, Mundhwa, Pune 411036 India",
      "detailed_address": {
        "street": "Rohan Ishita Road, Vanshaj Society, Pingale Vasti, Behind Passport Office, Next To Rohan Ishita, Mundhwa",
        "city": "Pune",
        "postal_code": "411036",
        "state": "Maharashtra",
        "country": "India"
      },
      "ranking": {
        "current_rank": 68,
        "total": 359
      },
      "featured_image": null,
      "latitude": 18.5335,
      "longitude": 73.89713,
      "amenities": [
        "Free Wifi",
        "Free parking",
        "Breakfast included",
        "Pool",
        "Indoor pool"
      ],
      "providers": [
        "Expedia.com"
      ]
    },
    {
      "id": 1563533,
      "name": "Hotel Parc Estique",
      "link": "https://www.tripadvisor.com/Hotel_Review-g297654-d1563533-Reviews-Hotel_Parc_Estique-Pune_Pune_District_Maharashtra.html",
      "reviews": 759,
      "rating": 4.2,
      "price_range_usd": {
        "min": 46,
        "max": 74
      },
      "phone": "+91 20 4100 4100",
      "address": "198 1/1A Chandan Nagar Rd Clover Park, Pune 411014 India",
      "detailed_address": {
        "street": "198 1/1A Chandan Nagar Rd, Clover Park",
        "city": "Pune",
        "postal_code": "411014",
        "state": "Maharashtra",
        "country": "India"
      },
      "ranking": {
        "current_rank": 42,
        "total": 359
      },
      "featured_image": null,
      "latitude": 18.562048,
      "longitude": 73.91963,
      "amenities": [
        "Free Wifi",
        "Free parking",
        "Pool",
        "Indoor pool",
        "Outdoor pool"
      ],
      "providers": [
        "Booking.com"
      ]
    },
    {
      "id": 24136996,
      "name": "Housemate Hotels",
      "link": "https://www.tripadvisor.com/Hotel_Review-g297654-d24136996-Reviews-Housemate_Hotels-Pune_Pune_District_Maharashtra.html",
      "reviews": 9,
      "rating": 4.4,
      "price_range_usd": {
        "min": 20,
        "max": 31
      },
      "phone": "+91 87999 98133",
      "address": "Nagar Road Besides Chandan Marble, Next to Indian Oil Petrol Pump, Pune 411014 India",
      "detailed_address": {
        "street": "Nagar Road, Besides Chandan Marble, Next to Indian Oil Petrol Pump",
        "city": "Pune",
        "postal_code": "411014",
        "state": "Maharashtra",
        "country": "India"
      },
      "ranking": {
        "current_rank": 26,
        "total": 175
      },
      "featured_image": null,
      "latitude": 18.556593,
      "longitude": 73.890945,
      "amenities": [],
      "providers": [
        "Expedia.com"
      ]
    },
    {
      "id": 1438415,
      "name": "OYO 18803 Smart Inn",
      "link": "https://www.tripadvisor.com/Hotel_Review-g297654-d1438415-Reviews-OYO_18803_Smart_Inn-Pune_Pune_District_Maharashtra.html",
      "reviews": 101,
      "rating": 3,
      "price_range_usd": {
        "min": 13,
        "max": 14
      },
      "phone": "+91 20 2553 8811",
      "address": "1226/2, Off Fergusson College Road Next to Venus Traders, Pune 411005 India",
      "detailed_address": {
        "street": "1226/2, Off Fergusson College Road, Next to Venus Traders",
        "city": "Pune",
        "postal_code": "411005",
        "state": "Maharashtra",
        "country": "India"
      },
      "ranking": {
        "current_rank": 307,
        "total": 359
      },
      "featured_image": null,
      "latitude": 18.519274,
      "longitude": 73.84227,
      "amenities": [
        "Free parking",
        "Breakfast included"
      ],
      "providers": [
        "MakeMyTrip"
      ]
    },
    {
      "id": 2304344,
      "name": "The Orchid Hotel",
      "link": "https://www.tripadvisor.com/Hotel_Review-g297654-d2304344-Reviews-The_Orchid_Hotel-Pune_Pune_District_Maharashtra.html",
      "reviews": 4263,
      "rating": 4.6,
      "price_range_usd": {
        "min": 64,
        "max": 84
      },
      "phone": "+91 91691 66789",
      "address": "Pune - Banglore Road Near Balewadi Sports Complex, Pune 411045 India",
      "detailed_address": {
        "street": "Pune - Banglore Road, Near Balewadi Sports Complex",
        "city": "Pune",
        "postal_code": "411045",
        "state": "Maharashtra",
        "country": "India"
      },
      "ranking": {
        "current_rank": 29,
        "total": 359
      },
      "featured_image": null,
      "latitude": 18.57086,
      "longitude": 73.76395,
      "amenities": [
        "Free Wifi",
        "Free parking",
        "Pool",
        "Outdoor pool",
        "Restaurant"
      ],
      "providers": [
        "Hotels.com"
      ]
    },
    {
      "id": 1859177,
      "name": "Jw Marriott Hotel Pune",
      "link": "https://www.tripadvisor.com/Hotel_Review-g297654-d1859177-Reviews-Jw_Marriott_Hotel_Pune-Pune_Pune_District_Maharashtra.html",
      "reviews": 5974,
      "rating": 4.8,
      "price_range_usd": {
        "min": 225,
        "max": 274
      },
      "phone": "+91 20 6683 3333",
      "address": "Senapati Bapat Road, Pune 411053 India",
      "detailed_address": {
        "street": "Senapati Bapat Road",
        "city": "Pune",
        "postal_code": "411053",
        "state": "Maharashtra",
        "country": "India"
      },
      "ranking": {
        "current_rank": 5,
        "total": 359
      },
      "featured_image": null,
      "latitude": 18.53246,
      "longitude": 73.82951,
      "amenities": [
        "Free Wifi",
        "Free parking",
        "Breakfast included",
        "Pool",
        "Outdoor pool"
      ],
      "providers": [
        "Booking.com"
      ]
    },
    {
      "id": 15527910,
      "name": "Lemon Tree Premier, City Center, Pune",
      "link": "https://www.tripadvisor.com/Hotel_Review-g297654-d15527910-Reviews-Lemon_Tree_Premier_City_Center_Pune-Pune_Pune_District_Maharashtra.html",
      "reviews": 1927,
      "rating": 4.8,
      "price_range_usd": {
        "min": 67,
        "max": 96
      },
      "phone": "+91 20 6768 4343",
      "address": "15 & 15a City Center Connaught Road, Pune 411001 India",
      "detailed_address": {
        "street": "15 & 15a City Center Connaught Road",
        "city": "Pune",
        "postal_code": "411001",
        "state": "Maharashtra",
        "country": "India"
      },
      "ranking": {
        "current_rank": 24,
        "total": 359
      },
      "featured_image": null,
      "latitude": 18.528,
      "longitude": 73.87653,
      "amenities": [
        "Free Wifi",
        "Free parking",
        "Breakfast included",
        "Pool",
        "Indoor pool"
      ],
      "providers": [
        "Booking.com"
      ]
    },
    {
      "id": 12413968,
      "name": "Sunny's World",
      "link": "https://www.tripadvisor.com/Hotel_Review-g297654-d12413968-Reviews-Sunny_s_World-Pune_Pune_District_Maharashtra.html",
      "reviews": 199,
      "rating": 3.2,
      "price_range_usd": {
        "min": 49,
        "max": 90
      },
      "phone": "+91 96675 55555",
      "address": "Sr.No.217, Pashan Sus Road Near Mumbai-Pune Bypass, Susgaon, Pune 412115 India",
      "detailed_address": {
        "street": "Sr.No.217, Pashan Sus Road, Near Mumbai-Pune Bypass, Susgaon",
        "city": "Pune",
        "postal_code": "412115",
        "state": "Maharashtra",
        "country": "India"
      },
      "ranking": {
        "current_rank": 32,
        "total": 289
      },
      "featured_image": null,
      "latitude": 18.556973,
      "longitude": 73.73792,
      "amenities": [
        "Free Wifi",
        "Free parking",
        "Breakfast included",
        "Pool",
        "Outdoor pool"
      ],
      "providers": [
        "Expedia.com"
      ]
    },
    {
      "id": 589858,
      "name": "E-square The Fern, Pune",
      "link": "https://www.tripadvisor.com/Hotel_Review-g297654-d589858-Reviews-E_square_The_Fern_Pune-Pune_Pune_District_Maharashtra.html",
      "reviews": 945,
      "rating": 4.5,
      "price_range_usd": {
        "min": 61,
        "max": 81
      },
      "phone": "+91 20 6604 4100",
      "address": "132/A University Road Ganeshkhind, Shivaji Nagar, Pune 411016 India",
      "detailed_address": {
        "street": "132/A University Road, Ganeshkhind, Shivaji Nagar",
        "city": "Pune",
        "postal_code": "411016",
        "state": "Maharashtra",
        "country": "India"
      },
      "ranking": {
        "current_rank": 11,
        "total": 359
      },
      "featured_image": null,
      "latitude": 18.537735,
      "longitude": 73.83541,
      "amenities": [
        "Free Wifi",
        "Free parking",
        "Breakfast included",
        "Pool",
        "Outdoor pool"
      ],
      "providers": [
        "Booking.com"
      ]
    },
    {
      "id": 3836992,
      "name": "Deccan Pavilion",
      "link": "https://www.tripadvisor.com/Hotel_Review-g297654-d3836992-Reviews-Deccan_Pavilion-Pune_Pune_District_Maharashtra.html",
      "reviews": 62,
      "rating": 3.5,
      "price_range_usd": {
        "min": 34,
        "max": 47
      },
      "phone": "+91 95956 95956",
      "address": "Mumbai Pune Bypass Rd, Pune 411041 India",
      "detailed_address": {
        "street": "Mumbai Pune Bypass Rd",
        "city": "Pune",
        "postal_code": "411041",
        "state": "Maharashtra",
        "country": "India"
      },
      "ranking": {
        "current_rank": 26,
        "total": 289
      },
      "featured_image": null,
      "latitude": 18.459429,
      "longitude": 73.82517,
      "amenities": [
        "Free parking",
        "Breakfast included",
        "Restaurant",
        "Room service",
        "Bar/Lounge"
      ],
      "providers": [
        "Agoda.com"
      ]
    },
    {
      "id": 3244476,
      "name": "The HHI Pune",
      "link": "https://www.tripadvisor.com/Hotel_Review-g297654-d3244476-Reviews-The_HHI_Pune-Pune_Pune_District_Maharashtra.html",
      "reviews": 437,
      "rating": 3.9,
      "price_range_usd": {
        "min": 37,
        "max": 59
      },
      "phone": "+91 20 6628 3535",
      "address": "33/1/1, Neco Bund, Plot 2H Garden Rd, Pune 411014 India",
      "detailed_address": {
        "street": "33/1/1, Neco Bund, Plot 2H, Garden Rd",
        "city": "Pune",
        "postal_code": "411014",
        "state": "Maharashtra",
        "country": "India"
      },
      "ranking": {
        "current_rank": 56,
        "total": 359
      },
      "featured_image": null,
      "latitude": 18.560831,
      "longitude": 73.91473,
      "amenities": [
        "Free Wifi",
        "Free parking",
        "Breakfast included",
        "Restaurant",
        "Airport transportation"
      ],
      "providers": [
        "Priceline"
      ]
    },
    {
      "id": 1176405,
      "name": "Hotel Studio Estique",
      "link": "https://www.tripadvisor.com/Hotel_Review-g297654-d1176405-Reviews-Hotel_Studio_Estique-Pune_Pune_District_Maharashtra.html",
      "reviews": 302,
      "rating": 4.3,
      "price_range_usd": {
        "min": 31,
        "max": 45
      },
      "phone": "+91 20 4018 8444",
      "address": "Bund Garden Road Amar Avinash Corporate Plaza Near Inox Multiplex, Pune 411001 India",
      "detailed_address": {
        "street": "Bund Garden Road, Amar Avinash Corporate Plaza Near Inox Multiplex",
        "city": "Pune",
        "postal_code": "411001",
        "state": "Maharashtra",
        "country": "India"
      },
      "ranking": {
        "current_rank": 55,
        "total": 359
      },
      "featured_image": null,
      "latitude": 18.527372,
      "longitude": 73.87824,
      "amenities": [
        "Free Wifi",
        "Free parking",
        "Breakfast included",
        "Restaurant",
        "Airport transportation"
      ],
      "providers": [
        "Expedia.com"
      ]
    },
    {
      "id": 19864992,
      "name": "Treebo Diamond Residency - Ddpk Inn",
      "link": "https://www.tripadvisor.com/Hotel_Review-g297654-d19864992-Reviews-Treebo_Diamond_Residency_Ddpk_Inn-Pune_Pune_District_Maharashtra.html",
      "reviews": 15,
      "rating": 4.8,
      "price_range_usd": {
        "min": 18,
        "max": 22
      },
      "phone": "+91 93228 00100",
      "address": "Survey Number 235 Lane Number 4 Sanjay Park, Viman Nagar, Pune 411024 India",
      "detailed_address": {
        "street": "Survey Number 235 Lane Number 4, Sanjay Park, Viman Nagar",
        "city": "Pune",
        "postal_code": "411024",
        "state": "Maharashtra",
        "country": "India"
      },
      "ranking": {
        "current_rank": 76,
        "total": 359
      },
      "featured_image": null,
      "latitude": 18.571167,
      "longitude": 73.90372,
      "amenities": [
        "Free Wifi",
        "Free parking",
        "Breakfast included",
        "Room service"
      ],
      "providers": [
        "Hotels.com"
      ]
    },
    {
      "id": 1546486,
      "name": "The Westin Pune Koregaon Park",
      "link": "https://www.tripadvisor.com/Hotel_Review-g297654-d1546486-Reviews-The_Westin_Pune_Koregaon_Park-Pune_Pune_District_Maharashtra.html",
      "reviews": 2692,
      "rating": 4.5,
      "price_range_usd": {
        "min": 132,
        "max": 191
      },
      "phone": "+91 20 6721 0000",
      "address": "36/3-B Koregaon Park Annexe, Pune 411001 India",
      "detailed_address": {
        "street": "36/3-B Koregaon Park Annexe",
        "city": "Pune",
        "postal_code": "411001",
        "state": "Maharashtra",
        "country": "India"
      },
      "ranking": {
        "current_rank": 34,
        "total": 359
      },
      "featured_image": null,
      "latitude": 18.539513,
      "longitude": 73.905975,
      "amenities": [
        "Free Wifi",
        "Free parking",
        "Pool",
        "Outdoor pool",
        "Restaurant"
      ],
      "providers": [
        "Booking.com"
      ]
    }
  ]
}